{
  "colleges": [
    {
      "facility_id": "col0001",
      "cd": "col",
      "name": "서울시립대학교",
      "address_raw": "서울 동대문구 서울시립대로 163 (전농동 90번지) ",
      "address_nm": "서울특별시 동대문구 전농동 694",
      "address_id": "1123010400",
      "lat": 37.583014562,
      "lon": 127.057202499,
      "phone": "02-6490-6114",
      "website": "http://www.uos.ac.kr",
      "operating_hours": null,
      "is_24h": false,
      "is_emergency": false,
      "capacity": null,
      "grade_level": null,
      "facility_extra": {
        "college_id": "BE_LiST23-0034",
        "college_type": "일반대학",
        "district": "동대문구",
        "branch": "본교",
        "state": "기존",
        "type": "공립"
      },
      "data_source": "openseoul"
    },
    {
      "facility_id": "col0002",
      "cd": "col",
      "name": "서울여자간호대학교",
      "address_raw": "서울 서대문구 홍제3동 서울여자간호대학",
      "address_nm": "서울특별시 서대문구 홍제동 287-89",
      "address_id": "1141011100",
      "lat": null,
      "lon": null,
      "phone": "02-2287-1700",
      "website": "http://www.snjc.ac.kr",
      "operating_hours": null,
      "is_24h": false,
      "is_emergency": false,
      "capacity": null,
      "grade_level": null,
      "facility_extra": {
        "college_id": "BE_LiST23-0035",
        "college_type": "전문대학(3년제)",
        "district": "서대문구",
        "branch": "본교",
        "state": "기존",
        "type": "사립"
      },
      "data_source": "openseoul"
    },
    {
      "facility_id": "col0003",
      "cd": "col",
      "name": "서울여자대학교",
      "address_raw": "서울특별시 노원구 화랑로 621 서울여자대학교",
      "address_nm": "서울특별시 노원구 공릉동 126",
      "address_id": "1135010300",
      "lat": 37.630430931,
      "lon": 127.089960694,
      "phone": "02-970-5114",
      "website": "http://www.swu.ac.kr",
      "operating_hours": null,
      "is_24h": false,
      "is_emergency": false,
      "capacity": null,
      "grade_level": null,
      "facility_extra": {
        "college_id": "BE_LiST23-0036",
        "college_type": "일반대학",
        "district": "노원구",
        "branch": "본교",
        "state": "기존",
        "type": "사립"
      },
      "data_source": "openseoul"
    },
    {
      "facility_id": "col0004",
      "cd": "col",
      "name": "서일대학교",
      "address_raw": "서울 중랑구 서일대학길 22(면목동 49-3) 서일대학교",
      "address_nm": null,
      "address_id": null,
      "lat": null,
      "lon": null,
      "phone": "02-490-7300",
      "website": "http://www.seoil.ac.kr",
      "operating_hours": null,
      "is_24h": false,
      "is_emergency": false,
      "capacity": null,
      "grade_level": null,
      "facility_extra": {
        "college_id": "BE_LiST23-0037",
        "college_type": "전문대학(2년제)",
        "district": "중랑구",
        "branch": "본교",
        "state": "학교명 변경",
        "type": "사립"
      },
      "data_source": "openseoul"
    },
    {
      "facility_id": "col0005",
      "cd": "col",
      "name": "성공회대학교",
      "address_raw": "서울 구로구 항동 성공회대학교",
      "address_nm": "서울특별시 구로구 고척동 167-58",
      "address_id": "1153010600",
      "lat": 37.48605130593536,
      "lon": 126.88157669970781,
      "phone": "02-2610-4142",
      "website": "http://www.skhu.ac.kr",
      "operating_hours": null,
      "is_24h": false,
      "is_emergency": false,
      "capacity": null,
      "grade_level": null,
      "facility_extra": {
        "college_id": "BE_LiST23-0038",
        "college_type": "일반대학",
        "district": "구로구",
        "branch": "본교",
        "state": "기존",
        "type": "사립"
      },
      "data_source": "openseoul"
    },
    {
      "facility_id": "col0006",
      "cd": "col",
      "name": "성균관대학교",
      "address_raw": "서울 종로구 명륜동3가 성균관대학교",
      "address_nm": null,
      "address_id": null,
      "lat": null,
      "lon": null,
      "phone": "02-760-0114",
      "website": "http://www.skku.edu",
      "operating_hours": null,
      "is_24h": false,
      "is_emergency": false,
      "capacity": null,
      "grade_level": null,
      "facility_extra": {
        "college_id": "BE_LiST23-0039",
        "college_type": "일반대학",
        "district": "종로구",
        "branch": "본교",
        "state": "기존",
        "type": "사립"
      },
      "data_source": "openseoul"
    },
    {
      "facility_id": "col0007",
      "cd": "col",
      "name": "성신여자대학교",
      "address_raw": "서울 성북구 동선동3가 성신여자대학교",
      "address_nm": "서울특별시 성북구 동선동3가 237 성신여자대학교 직장어린이집 및 기숙사",
      "address_id": "1129011800",
      "lat": 37.59448840861905,
      "lon": 127.01952870171436,
      "phone": "02-920-7114",
      "website": "http://www.sungshin.ac.kr",
      "operating_hours": null,
      "is_24h": false,
      "is_emergency": false,
      "capacity": null,
      "grade_level": null,
      "facility_extra": {
        "college_id": "BE_LiST23-0040",
        "college_type": "일반대학",
        "district": "성북구",
        "branch": "본교",
        "state": "기존",
        "type": "사립"
      },
      "data_source": "openseoul"
    },
    {
      "facility_id": "col0008",
      "cd": "col",
      "name": "세종대학교",
      "address_raw": "서울 광진구 군자동 세종대학교",
      "address_nm": "서울특별시 광진구 자양동 158-17",
      "address_id": "1121510500",
      "lat": 37.5569395282115,
      "lon": 127.11290815574748,
      "phone": "02-3408-3114",
      "website": "http://www.sejong.ac.kr",
      "operating_hours": null,
      "is_24h": false,
      "is_emergency": false,
      "capacity": null,
      "grade_level": null,
      "facility_extra": {
        "college_id": "BE_LiST23-0041",
        "college_type": "일반대학",
        "district": "광진구",
        "branch": "본교",
        "state": "기존",
        "type": "사립"
      },
      "data_source": "openseoul"
    },
    {
      "facility_id": "col0009",
      "cd": "col",
      "name": "숙명여자대학교",
      "address_raw": "서울 용산구 청파로47길 100 숙명여자대학교",
      "address_nm": "서울특별시 용산구 청파동2가 53-12 숙명여자대학교",
      "address_id": "1117011000",
      "lat": 37.546278636,
      "lon": 126.963665081,
      "phone": "nan",
      "website": "http://www.sookmyung.ac.kr/",
      "operating_hours": null,
      "is_24h": false,
      "is_emergency": false,
      "capacity": null,
      "grade_level": null,
      "facility_extra": {
        "college_id": "BE_LiST23-0042",
        "college_type": "일반대학",
        "district": "용산구",
        "branch": "본교",
        "state": "기존",
        "type": "사립"
      },
      "data_source": "openseoul"
    },
    {
      "facility_id": "col0010",
      "cd": "col",
      "name": "숭실대학교",
      "address_raw": "서울 동작구 상도동 511 숭실대학교",
      "address_nm": "서울특별시 동작구 상도동 511",
      "address_id": "1159010200",
      "lat": 37.496401892872754,
      "lon": 126.95658825520702,
      "phone": "02-820-0114",
      "website": "http://www.ssu.ac.kr",
      "operating_hours": null,
      "is_24h": false,
      "is_emergency": false,
      "capacity": null,
      "grade_level": null,
      "facility_extra": {
        "college_id": "BE_LiST23-0043",
        "college_type": "일반대학",
        "district": "동작구",
        "branch": "본교",
        "state": "기존",
        "type": "사립"
      },
      "data_source": "openseoul"
    },
    {
      "facility_id": "col0011",
      "cd": "col",
      "name": "숭의여자대학교",
      "address_raw": "서울특별시 중구 소파로2길 10(예장동)",
      "address_nm": "서울특별시 중구 예장동 8-3",
      "address_id": "1114014200",
      "lat": 37.557404277,
      "lon": 126.987856776,
      "phone": "02-3708-9000",
      "website": "http://www.sewc.ac.kr",
      "operating_hours": null,
      "is_24h": false,
      "is_emergency": false,
      "capacity": null,
      "grade_level": null,
      "facility_extra": {
        "college_id": "BE_LiST23-0044",
        "college_type": "전문대학(2년제)",
        "district": "중구",
        "branch": "본교",
        "state": "기존",
        "type": "사립"
      },
      "data_source": "openseoul"
    },
    {
      "facility_id": "col0012",
      "cd": "col",
      "name": "연세대학교",
      "address_raw": "서울 서대문구 신촌동 연세대학교",
      "address_nm": "서울특별시 서대문구 남가좌동 394",
      "address_id": "1141012000",
      "lat": 37.58447480304251,
      "lon": 126.92304091874152,
      "phone": "02-2123-2114",
      "website": "http://www.yonsei.ac.kr",
      "operating_hours": null,
      "is_24h": false,
      "is_emergency": false,
      "capacity": null,
      "grade_level": null,
      "facility_extra": {
        "college_id": "BE_LiST23-0045",
        "college_type": "일반대학",
        "district": "서대문구",
        "branch": "본교",
        "state": "기존",
        "type": "사립"
      },
      "data_source": "openseoul"
    },
    {
      "facility_id": "col0013",
      "cd": "col",
      "name": "이화여자대학교",
      "address_raw": "서울 서대문구 대현동 11-1 이화여자대학교",
      "address_nm": "서울특별시 서대문구 대현동 11-1",
      "address_id": "1141011200",
      "lat": 37.56317403191352,
      "lon": 126.94780763348592,
      "phone": "02-3277-2114",
      "website": "http://www.ewha.ac.kr",
      "operating_hours": null,
      "is_24h": false,
      "is_emergency": false,
      "capacity": null,
      "grade_level": null,
      "facility_extra": {
        "college_id": "BE_LiST23-0046",
        "college_type": "일반대학",
        "district": "서대문구",
        "branch": "본교",
        "state": "기존",
        "type": "사립"
      },
      "data_source": "openseoul"
    },
    {
      "facility_id": "col0014",
      "cd": "col",
      "name": "인덕대학교",
      "address_raw": "서울 노원구 초안산로 12",
      "address_nm": "서울특별시 노원구 월계동 648",
      "address_id": "1135010200",
      "lat": 37.632268449,
      "lon": 127.056884316,
      "phone": "02-950-7000",
      "website": "http://www.induk.ac.kr",
      "operating_hours": null,
      "is_24h": false,
      "is_emergency": false,
      "capacity": null,
      "grade_level": null,
      "facility_extra": {
        "college_id": "BE_LiST23-0047",
        "college_type": "전문대학(2년제)",
        "district": "노원구",
        "branch": "본교",
        "state": "기존",
        "type": "사립"
      },
      "data_source": "openseoul"
    },
    {
      "facility_id": "col0015",
      "cd": "col",
      "name": "장로회신학대학교",
      "address_raw": "서울 광진구 광장로 5길 25-1(광장동) 장로회신학대학교",
      "address_nm": "서울특별시 광진구 광장동 353",
      "address_id": "1121510400",
      "lat": 37.549338778,
      "lon": 127.104899161,
      "phone": "02-450-0700",
      "website": "http://www.pcts.ac.kr",
      "operating_hours": null,
      "is_24h": false,
      "is_emergency": false,
      "capacity": null,
      "grade_level": null,
      "facility_extra": {
        "college_id": "BE_LiST23-0048",
        "college_type": "일반대학",
        "district": "광진구",
        "branch": "본교",
        "state": "기존",
        "type": "사립"
      },
      "data_source": "openseoul"
    }
  ],
  "metadata": {
    "normalized_at": "2025-09-24T21:25:45.643366",
    "total_colleges": 15,
    "source_file": "backend\\data\\public-api\\openseoul\\seoul_SebcCollegeInfoKor_20250919.csv",
    "description": "대학 데이터 노말라이징 테스트 결과 (상위 15개)",
    "data_source": "openseoul"
  }
}